[
  {
    "id": "1",
    "name": "pothy",
    "lat": "13.040436",
    "lng": "80.232055",
    "address": "107, G.N.Chetty Road, (Next to Vani Mahal) T.Nagar",
    "address2": "",
    "city": "Chennai",
    "state": "Tamilnadu",
    "postal": "600017",
    "phone": "9095861172",
    "web": "http:\/\/www.pothys.com",
    "hours1": "Mon-Sun 11am-10pm",
    "hours2": "",
    "hours3": ""
  },
  {
    "id": "2",
    "name": "saravana stores",
    "lat": "13.033431",
    "lng": "80.258507",
    "address": "10, Purasawalkam High Rd, Purasaiwakkam",
    "address2": "",
    "city": "Chennai",
    "state": "Tamilnadu",
    "postal": "600007",
    "phone": "9095861172",
    "web": "http:\/\/supersaravanastores.com",
    "hours1": "Mon-Sun 11am-10pm",
    "hours2": "",
    "hours3": ""
  },
  {
    "id": "3",
    "name": "Express Avenue",
    "lat": "13.058581",
    "lng": "80.264572",
    "address": "No. 2 , Club House Road,, Royapettah",
    "address2": "",
    "city": "Chennai",
    "state": "Tamilnadu",
    "postal": "600002",
    "phone": "9095861172",
    "web": "http:\/\/expressavenue.in/",
    "hours1": "Mon-Sun 11am-10pm",
    "hours2": "",
    "hours3": ""
  },
  {
    "id": "4",
    "name": "Phoenix Marketcity",
    "lat": "12.992307",
    "lng": "80.217031",
    "address": "142, Velachery Main Road, Velachery, Chennai",
    "address2": "",
    "city": "Chennai",
    "state": "Tamilnadu",
    "postal": "600042",
    "phone": "9095861172",
    "web": "http:\/\/www.phoenixmarketcity.com/chennai/",
    "hours1": "Mon-Sun 11am-10pm",
    "hours2": "",
    "hours3": ""
  },
  {
    "id": "5",
    "name": "Spencer Plaza",
    "lat": "13.061397",
    "lng": "80.261393",
    "address": "769 Mount Road, Anna Salai, Triplicane",
    "address2": "",
    "city": "Chennai",
    "state": "Tamilnadu",
    "postal": "600002",
    "phone": "9095861172",
    "web": "http:\/\/www.spencers.in",
    "hours1": "Mon-Sun 11am-10pm",
    "hours2": "",
    "hours3": ""
  },
  {
    "id": "6",
    "name": "Abirami Plaza",
    "lat": "12.928957",
    "lng": "80.119112",
    "address": "1040 Nicollet Ave",
    "address2": "",
    "city": "Chennai",
    "state": "Tamilnadu",
    "postal": "55403",
    "phone": "612-659-7955",
    "web": "http:\/\/www.chipotle.com",
    "hours1": "Mon-Sun 11am-10pm",
    "hours2": "",
    "hours3": ""
  },
  {
    "id": "7",
    "name": "Chipotle Minneapolis",
    "lat": "44.97774",
    "lng": "-93.270909",
    "address": "50 South 6th",
    "address2": "",
    "city": "Minneapolis",
    "state": "MN",
    "postal": "55402",
    "phone": "612-333-0434",
    "web": "http:\/\/www.chipotle.com",
    "hours1": "Mon-Sun 11am-10pm",
    "hours2": "",
    "hours3": ""
  },
  {
    "id": "8",
    "name": "Chipotle Edina",
    "lat": "44.879826",
    "lng": "-93.321280",
    "address": "6801 York Avenue South",
    "address2": "",
    "city": "Edina",
    "state": "MN",
    "postal": "55435",
    "phone": "952-926-6651",
    "web": "http:\/\/www.chipotle.com",
    "hours1": "Mon-Sun 11am-10pm",
    "hours2": "",
    "hours3": ""
  },
  {
    "id": "9",
    "name": "Chipotle Minnetonka",
    "lat": "44.970495",
    "lng": "-93.437430",
    "address": "12509 Wayzata Blvd",
    "address2": "",
    "city": "Minnetonka",
    "state": "MN",
    "postal": "55305",
    "phone": "952-252-4900",
    "web": "http:\/\/www.chipotle.com",
    "hours1": "Mon-Sun 11am-10pm",
    "hours2": "",
    "hours3": ""
  },
  {
    "id": "10",
    "name": "Chipotle Minneapolis",
    "lat": "44.972808",
    "lng": "-93.247153",
    "address": "229 Cedar Ave S",
    "address2": "",
    "city": "Minneapolis",
    "state": "MN",
    "postal": "55454",
    "phone": "612-659-7830",
    "web": "http:\/\/www.chipotle.com",
    "hours1": "Mon-Sun 11am-10pm",
    "hours2": "",
    "hours3": ""
  },
  {
    "id": "11",
    "name": "Chipotle Minneapolis",
    "lat": "44.987687",
    "lng": "-93.257581",
    "address": "225 Hennepin Ave E",
    "address2": "",
    "city": "Minneapolis",
    "state": "MN",
    "postal": "55414",
    "phone": "612-331-6330",
    "web": "http:\/\/www.chipotle.com",
    "hours1": "Mon-Sun 11am-10pm",
    "hours2": "",
    "hours3": ""
  },
  {
    "id": "12",
    "name": "Chipotle Minneapolis",
    "lat": "44.973665",
    "lng": "-93.227023",
    "address": "800 Washington Ave SE",
    "address2": "",
    "city": "Minneapolis",
    "state": "MN",
    "postal": "55414",
    "phone": "612-378-7078",
    "web": "http:\/\/www.chipotle.com",
    "hours1": "Mon-Sun 11am-10pm",
    "hours2": "",
    "hours3": ""
  },
  {
    "id": "13",
    "name": "Chipotle Bloomington",
    "lat": "44.8458631",
    "lng": "-93.2860161",
    "address": "322 South Ave",
    "address2": "",
    "city": "Bloomington",
    "state": "MN",
    "postal": "55425",
    "phone": "952-252-3800",
    "web": "http:\/\/www.chipotle.com",
    "hours1": "Mon-Sun 11am-10pm",
    "hours2": "",
    "hours3": ""
  },
  {
    "id": "14",
    "name": "Chipotle Wayzata",
    "lat": "44.9716626",
    "lng": "-93.4967757",
    "address": "1313 Wayzata Blvd",
    "address2": "",
    "city": "Wayzata",
    "state": "MN",
    "postal": "55391",
    "phone": "952-473-7100",
    "web": "http:\/\/www.chipotle.com",
    "hours1": "Mon-Sun 11am-10pm",
    "hours2": "",
    "hours3": ""
  },
  {
    "id": "15",
    "name": "Chipotle Eden Prairie",
    "lat": "44.859761",
    "lng": "-93.436379",
    "address": "13250 Technology Dr",
    "address2": "",
    "city": "Eden Prairie",
    "state": "MN",
    "postal": "55344",
    "phone": "952-934-5955",
    "web": "http:\/\/www.chipotle.com",
    "hours1": "Mon-Sun 11am-10pm",
    "hours2": "",
    "hours3": ""
  },
  {
    "id": "16",
    "name": "Chipotle Plymouth",
    "lat": "45.019846",
    "lng": "-93.481832",
    "address": "3425 Vicksburg Lane N",
    "address2": "",
    "city": "Plymouth",
    "state": "MN",
    "postal": "55447",
    "phone": "763-519-0063",
    "web": "http:\/\/www.chipotle.com",
    "hours1": "Mon-Sun 11am-10pm",
    "hours2": "",
    "hours3": ""
  },
  {
    "id": "17",
    "name": "Chipotle Roseville",
    "lat": "44.998965",
    "lng": "-93.194622",
    "address": "860 Rosedale Center Plaza",
    "address2": "",
    "city": "Roseville",
    "state": "MN",
    "postal": "55113",
    "phone": "651-633-2300",
    "web": "http:\/\/www.chipotle.com",
    "hours1": "Mon-Sun 11am-10pm",
    "hours2": "",
    "hours3": ""
  },
  {
    "id": "18",
    "name": "Chipotle St. Paul",
    "lat": "44.939865",
    "lng": "-93.136768",
    "address": "867 Grand Ave",
    "address2": "",
    "city": "St. Paul",
    "state": "MN",
    "postal": "55105",
    "phone": "651-602-0560",
    "web": "http:\/\/www.chipotle.com",
    "hours1": "Mon-Sun 11am-10pm",
    "hours2": "",
    "hours3": ""
  },
  {
    "id": "19",
    "name": "Chipotle Chanhassen",
    "lat": "44.858736",
    "lng": "-93.533661",
    "address": "560 W 79th",
    "address2": "",
    "city": "Chanhassen",
    "state": "MN",
    "postal": "55317",
    "phone": "952-294-0301",
    "web": "http:\/\/www.chipotle.com",
    "hours1": "Mon-Sun 11am-10pm",
    "hours2": "",
    "hours3": ""
  },
  {
    "id": "20",
    "name": "Chipotle St. Paul",
    "lat": "44.945127",
    "lng": "-93.095368",
    "address": "29 5th St West",
    "address2": "",
    "city": "St. Paul",
    "state": "MN",
    "postal": "55102",
    "phone": "651-291-5411",
    "web": "http:\/\/www.chipotle.com",
    "hours1": "Mon-Sun 11am-10pm",
    "hours2": "",
    "hours3": ""
  }
]